[
    {
        "model": "authentication.ZipCode",
        "pk": 1,
        "fields": {
            "id": 1,
            "zip_code": "78267",
            "city": "Aach",
            "lon": "8.863226244902151",
            "lat": "47.8448883488451"
        }
    },
    {
        "model": "authentication.ZipCode",
        "pk": 2,
        "fields": {
            "id": 2,
            "zip_code": "54298",
            "city": "Aach",
            "lon": "6.58668785193422",
            "lat": "49.84237609514479"
        }
    },
    {
        "model": "authentication.ZipCode",
        "pk": 4,
        "fields": {
            "id": 4,
            "zip_code": "52062",
            "city": "Aachen",
            "lon": "6.087774823815909",
            "lat": "50.7771714836654"
        }
    },
    {
        "model": "authentication.ZipCode",
        "pk": 5,
        "fields": {
            "id": 5,
            "zip_code": "52064",
            "city": "Aachen",
            "lon": "6.08214644201833",
            "lat": "50.7672852554012"
        }
    },
    {
        "model": "authentication.ZipCode",
        "pk": 6,
        "fields": {
            "id": 6,
            "zip_code": "52066",
            "city": "Aachen",
            "lon": "6.108041166743781",
            "lat": "50.7578881973929"
        }
    },
    {
        "model": "authentication.ZipCode",
        "pk": 7,
        "fields": {
            "id": 7,
            "zip_code": "52068",
            "city": "Aachen",
            "lon": "6.1272628047829105",
            "lat": "50.7798673002269"
        }
    },
    {
        "model": "authentication.ZipCode",
        "pk": 8,
        "fields": {
            "id": 8,
            "zip_code": "52070",
            "city": "Aachen",
            "lon": "6.09709311942036",
            "lat": "50.7940929094384"
        }
    },
    {
        "model": "authentication.ZipCode",
        "pk": 9,
        "fields": {
            "id": 9,
            "zip_code": "52072",
            "city": "Aachen",
            "lon": "6.051261777045389",
            "lat": "50.8232808772565"
        }
    },
    {
        "model": "authentication.ZipCode",
        "pk": 10,
        "fields": {
            "id": 10,
            "zip_code": "52074",
            "city": "Aachen",
            "lon": "6.038225177171509",
            "lat": "50.774570139006"
        }
    },
    {
        "model": "authentication.ZipCode",
        "pk": 11,
        "fields": {
            "id": 11,
            "zip_code": "52076",
            "city": "Aachen",
            "lon": "6.15198274272852",
            "lat": "50.715569531420094"
        }
    },
    {
        "model": "authentication.ZipCode",
        "pk": 12,
        "fields": {
            "id": 12,
            "zip_code": "52078",
            "city": "Aachen",
            "lon": "6.16301463156531",
            "lat": "50.7573402408111"
        }
    },
    {
        "model": "authentication.ZipCode",
        "pk": 13,
        "fields": {
            "id": 13,
            "zip_code": "52080",
            "city": "Aachen",
            "lon": "6.161286415751849",
            "lat": "50.7879824184336"
        }
    },
    {
        "model": "authentication.ZipCode",
        "pk": 14,
        "fields": {
            "id": 14,
            "zip_code": "73430",
            "city": "Aalen",
            "lon": "10.080716167313101",
            "lat": "48.843264883449294"
        }
    },
    {
        "model": "authentication.ZipCode",
        "pk": 15,
        "fields": {
            "id": 15,
            "zip_code": "73431",
            "city": "Aalen",
            "lon": "10.091005245249999",
            "lat": "48.826111299189904"
        }
    },
    {
        "model": "authentication.ZipCode",
        "pk": 16,
        "fields": {
            "id": 16,
            "zip_code": "73432",
            "city": "Aalen",
            "lon": "10.1756668611054",
            "lat": "48.8170147851668"
        }
    },
    {
        "model": "authentication.ZipCode",
        "pk": 17,
        "fields": {
            "id": 17,
            "zip_code": "73433",
            "city": "Aalen",
            "lon": "10.108653398959401",
            "lat": "48.868876595973994"
        }
    },
    {
        "model": "authentication.ZipCode",
        "pk": 18,
        "fields": {
            "id": 18,
            "zip_code": "73434",
            "city": "Aalen",
            "lon": "10.028182502885901",
            "lat": "48.8603767450811"
        }
    },
    {
        "model": "authentication.ZipCode",
        "pk": 19,
        "fields": {
            "id": 19,
            "zip_code": "65326",
            "city": "Aarbergen",
            "lon": "8.08308205554475",
            "lat": "50.250343299983996"
        }
    },
    {
        "model": "authentication.ZipCode",
        "pk": 20,
        "fields": {
            "id": 20,
            "zip_code": "25560",
            "city": "Aasb\u00fcttel",
            "lon": "9.46858904264883",
            "lat": "54.0590864647167"
        }
    },
    {
        "model": "authentication.ZipCode",
        "pk": 21,
        "fields": {
            "id": 21,
            "zip_code": "91183",
            "city": "Abenberg",
            "lon": "10.9356292015959",
            "lat": "49.236297666957995"
        }
    },
    {
        "model": "authentication.ZipCode",
        "pk": 22,
        "fields": {
            "id": 22,
            "zip_code": "93326",
            "city": "Abensberg",
            "lon": "11.8548905690642",
            "lat": "48.8284212364228"
        }
    },
    {
        "model": "authentication.ZipCode",
        "pk": 23,
        "fields": {
            "id": 23,
            "zip_code": "55767",
            "city": "Abentheuer",
            "lon": "7.170028784144441",
            "lat": "49.6737005523931"
        }
    },
    {
        "model": "authentication.ZipCode",
        "pk": 24,
        "fields": {
            "id": 24,
            "zip_code": "91720",
            "city": "Absberg",
            "lon": "10.8598894108107",
            "lat": "49.1590141769445"
        }
    },
    {
        "model": "authentication.ZipCode",
        "pk": 25,
        "fields": {
            "id": 25,
            "zip_code": "74232",
            "city": "Abstatt",
            "lon": "9.30240580258846",
            "lat": "49.0739374287945"
        }
    },
    {
        "model": "authentication.ZipCode",
        "pk": 26,
        "fields": {
            "id": 26,
            "zip_code": "99713",
            "city": "Abtsbessingen",
            "lon": "10.695740272408802",
            "lat": "51.3206235929383"
        }
    },
    {
        "model": "authentication.ZipCode",
        "pk": 27,
        "fields": {
            "id": 27,
            "zip_code": "73453",
            "city": "Abtsgm\u00fcnd",
            "lon": "9.961860677372151",
            "lat": "48.9131819004056"
        }
    },
    {
        "model": "authentication.ZipCode",
        "pk": 28,
        "fields": {
            "id": 28,
            "zip_code": "69518",
            "city": "Abtsteinach",
            "lon": "8.78835440124363",
            "lat": "49.541161673719394"
        }
    },
    {
        "model": "authentication.ZipCode",
        "pk": 29,
        "fields": {
            "id": 29,
            "zip_code": "97355",
            "city": "Abtswind",
            "lon": "10.335511647696901",
            "lat": "49.7596071465168"
        }
    },
    {
        "model": "authentication.ZipCode",
        "pk": 30,
        "fields": {
            "id": 30,
            "zip_code": "55568",
            "city": "Abtweiler",
            "lon": "7.66406061331492",
            "lat": "49.759007427563496"
        }
    },
    {
        "model": "authentication.ZipCode",
        "pk": 31,
        "fields": {
            "id": 31,
            "zip_code": "88147",
            "city": "Achberg",
            "lon": "9.71506638380175",
            "lat": "47.6262150116396"
        }
    },
    {
        "model": "authentication.ZipCode",
        "pk": 32,
        "fields": {
            "id": 32,
            "zip_code": "77855",
            "city": "Achern",
            "lon": "8.04695847693695",
            "lat": "48.632934149865996"
        }
    },
    {
        "model": "authentication.ZipCode",
        "pk": 33,
        "fields": {
            "id": 33,
            "zip_code": "28832",
            "city": "Achim",
            "lon": "9.03922226077046",
            "lat": "53.022655118408295"
        }
    },
    {
        "model": "authentication.ZipCode",
        "pk": 34,
        "fields": {
            "id": 34,
            "zip_code": "94250",
            "city": "Achslach",
            "lon": "12.907968396319498",
            "lat": "48.973528979349794"
        }
    },
    {
        "model": "authentication.ZipCode",
        "pk": 35,
        "fields": {
            "id": 35,
            "zip_code": "88480",
            "city": "Achstetten",
            "lon": "9.89918553271422",
            "lat": "48.2649718748771"
        }
    },
    {
        "model": "authentication.ZipCode",
        "pk": 36,
        "fields": {
            "id": 36,
            "zip_code": "56729",
            "city": "Acht",
            "lon": "7.09846198236998",
            "lat": "50.32664224718929"
        }
    },
    {
        "model": "authentication.ZipCode",
        "pk": 37,
        "fields": {
            "id": 37,
            "zip_code": "55767",
            "city": "Achtelsbach",
            "lon": "7.170028784144441",
            "lat": "49.6737005523931"
        }
    },
    {
        "model": "authentication.ZipCode",
        "pk": 38,
        "fields": {
            "id": 38,
            "zip_code": "24239",
            "city": "Achterwehr",
            "lon": "9.979619786548751",
            "lat": "54.3042329886361"
        }
    },
    {
        "model": "authentication.ZipCode",
        "pk": 39,
        "fields": {
            "id": 39,
            "zip_code": "25917",
            "city": "Achtrup",
            "lon": "9.01308299887401",
            "lat": "54.764188984252904"
        }
    },
    {
        "model": "authentication.ZipCode",
        "pk": 40,
        "fields": {
            "id": 40,
            "zip_code": "73099",
            "city": "Adelberg",
            "lon": "9.59608933443582",
            "lat": "48.7625835142951"
        }
    },
    {
        "model": "authentication.ZipCode",
        "pk": 41,
        "fields": {
            "id": 41,
            "zip_code": "37139",
            "city": "Adelebsen",
            "lon": "9.74686594563331",
            "lat": "51.5683214796504"
        }
    },
    {
        "model": "authentication.ZipCode",
        "pk": 42,
        "fields": {
            "id": 42,
            "zip_code": "29352",
            "city": "Adelheidsdorf",
            "lon": "10.028821364384301",
            "lat": "52.561813074429296"
        }
    },
    {
        "model": "authentication.ZipCode",
        "pk": 43,
        "fields": {
            "id": 43,
            "zip_code": "73486",
            "city": "Adelmannsfelden",
            "lon": "9.96860984567023",
            "lat": "48.9615600180608"
        }
    },
    {
        "model": "authentication.ZipCode",
        "pk": 44,
        "fields": {
            "id": 44,
            "zip_code": "85111",
            "city": "Adelschlag",
            "lon": "11.1995395290342",
            "lat": "48.841670993784"
        }
    },
    {
        "model": "authentication.ZipCode",
        "pk": 45,
        "fields": {
            "id": 45,
            "zip_code": "91325",
            "city": "Adelsdorf",
            "lon": "10.8995530614866",
            "lat": "49.711881206941904"
        }
    },
    {
        "model": "authentication.ZipCode",
        "pk": 46,
        "fields": {
            "id": 46,
            "zip_code": "74740",
            "city": "Adelsheim",
            "lon": "9.39459727300962",
            "lat": "49.3910323456783"
        }
    },
    {
        "model": "authentication.ZipCode",
        "pk": 47,
        "fields": {
            "id": 47,
            "zip_code": "91587",
            "city": "Adelshofen",
            "lon": "10.147105126696",
            "lat": "49.452261133153"
        }
    },
    {
        "model": "authentication.ZipCode",
        "pk": 48,
        "fields": {
            "id": 48,
            "zip_code": "82276",
            "city": "Adelshofen",
            "lon": "11.107473058547999",
            "lat": "48.195283249778"
        }
    },
    {
        "model": "authentication.ZipCode",
        "pk": 49,
        "fields": {
            "id": 49,
            "zip_code": "86477",
            "city": "Adelsried",
            "lon": "10.7162454149954",
            "lat": "48.4274657795796"
        }
    },
    {
        "model": "authentication.ZipCode",
        "pk": 50,
        "fields": {
            "id": 50,
            "zip_code": "86559",
            "city": "Adelzhausen",
            "lon": "11.1289213205851",
            "lat": "48.358404502324"
        }
    },
    {
        "model": "authentication.ZipCode",
        "pk": 51,
        "fields": {
            "id": 51,
            "zip_code": "53518",
            "city": "Adenau",
            "lon": "6.94275131322607",
            "lat": "50.3766238669876"
        }
    },
    {
        "model": "authentication.ZipCode",
        "pk": 52,
        "fields": {
            "id": 52,
            "zip_code": "67742",
            "city": "Adenbach",
            "lon": "7.590831153961309",
            "lat": "49.645351251355706"
        }
    },
    {
        "model": "authentication.ZipCode",
        "pk": 53,
        "fields": {
            "id": 53,
            "zip_code": "38528",
            "city": "Adenb\u00fcttel",
            "lon": "10.4455333765102",
            "lat": "52.390442127886"
        }
    },
    {
        "model": "authentication.ZipCode",
        "pk": 54,
        "fields": {
            "id": 54,
            "zip_code": "21365",
            "city": "Adendorf",
            "lon": "10.453992934281",
            "lat": "53.2892625592832"
        }
    },
    {
        "model": "authentication.ZipCode",
        "pk": 55,
        "fields": {
            "id": 55,
            "zip_code": "84166",
            "city": "Adlkofen",
            "lon": "12.2819600362122",
            "lat": "48.536088181682395"
        }
    },
    {
        "model": "authentication.ZipCode",
        "pk": 56,
        "fields": {
            "id": 56,
            "zip_code": "18211",
            "city": "Admannshagen-Bargeshagen",
            "lon": "11.9286748544946",
            "lat": "54.113415067340604"
        }
    },
    {
        "model": "authentication.ZipCode",
        "pk": 57,
        "fields": {
            "id": 57,
            "zip_code": "08626",
            "city": "Adorf/Vogtland",
            "lon": "12.2251333029982",
            "lat": "50.350134142593696"
        }
    },
    {
        "model": "authentication.ZipCode",
        "pk": 58,
        "fields": {
            "id": 58,
            "zip_code": "25572",
            "city": "Aebtissinwisch",
            "lon": "9.25515003381238",
            "lat": "53.925594945342105"
        }
    },
    {
        "model": "authentication.ZipCode",
        "pk": 59,
        "fields": {
            "id": 59,
            "zip_code": "31855",
            "city": "Aerzen",
            "lon": "9.242772528909098",
            "lat": "52.0598473307777"
        }
    },
    {
        "model": "authentication.ZipCode",
        "pk": 60,
        "fields": {
            "id": 60,
            "zip_code": "71563",
            "city": "Affalterbach",
            "lon": "9.33618199303771",
            "lat": "48.9208563483729"
        }
    },
    {
        "model": "authentication.ZipCode",
        "pk": 61,
        "fields": {
            "id": 61,
            "zip_code": "86444",
            "city": "Affing",
            "lon": "10.961881946676302",
            "lat": "48.4502066345959"
        }
    },
    {
        "model": "authentication.ZipCode",
        "pk": 62,
        "fields": {
            "id": 62,
            "zip_code": "27257",
            "city": "Affinghausen",
            "lon": "8.847561469850529",
            "lat": "52.792352897282896"
        }
    },
    {
        "model": "authentication.ZipCode",
        "pk": 63,
        "fields": {
            "id": 63,
            "zip_code": "54689",
            "city": "Affler",
            "lon": "6.18157485482342",
            "lat": "50.0614927922087"
        }
    },
    {
        "model": "authentication.ZipCode",
        "pk": 64,
        "fields": {
            "id": 64,
            "zip_code": "21684",
            "city": "Agathenburg",
            "lon": "9.47246650689103",
            "lat": "53.5695184439501"
        }
    },
    {
        "model": "authentication.ZipCode",
        "pk": 65,
        "fields": {
            "id": 65,
            "zip_code": "25560",
            "city": "Agethorst",
            "lon": "9.46858904264883",
            "lat": "54.0590864647167"
        }
    },
    {
        "model": "authentication.ZipCode",
        "pk": 66,
        "fields": {
            "id": 66,
            "zip_code": "74858",
            "city": "Aglasterhausen",
            "lon": "8.99558642101751",
            "lat": "49.3629303078117"
        }
    },
    {
        "model": "authentication.ZipCode",
        "pk": 67,
        "fields": {
            "id": 67,
            "zip_code": "84168",
            "city": "Aham",
            "lon": "12.465037233294401",
            "lat": "48.5251660399856"
        }
    },
    {
        "model": "authentication.ZipCode",
        "pk": 68,
        "fields": {
            "id": 68,
            "zip_code": "48683",
            "city": "Ahaus",
            "lon": "6.95973127797191",
            "lat": "52.1014809517457"
        }
    },
    {
        "model": "authentication.ZipCode",
        "pk": 69,
        "fields": {
            "id": 69,
            "zip_code": "27367",
            "city": "Ahausen",
            "lon": "9.24979942990108",
            "lat": "53.1092458401054"
        }
    },
    {
        "model": "authentication.ZipCode",
        "pk": 70,
        "fields": {
            "id": 70,
            "zip_code": "17375",
            "city": "Ahlbeck",
            "lon": "14.1163823391225",
            "lat": "53.696327709446"
        }
    },
    {
        "model": "authentication.ZipCode",
        "pk": 71,
        "fields": {
            "id": 71,
            "zip_code": "29693",
            "city": "Ahlden",
            "lon": "9.54761411472302",
            "lat": "52.7665774809381"
        }
    },
    {
        "model": "authentication.ZipCode",
        "pk": 72,
        "fields": {
            "id": 72,
            "zip_code": "24358",
            "city": "Ahlefeld-Bistensee",
            "lon": "9.69337967752207",
            "lat": "54.4274087135496"
        }
    },
    {
        "model": "authentication.ZipCode",
        "pk": 73,
        "fields": {
            "id": 73,
            "zip_code": "59227",
            "city": "Ahlen",
            "lon": "7.881213862803481",
            "lat": "51.785054537844"
        }
    },
    {
        "model": "authentication.ZipCode",
        "pk": 74,
        "fields": {
            "id": 74,
            "zip_code": "59229",
            "city": "Ahlen",
            "lon": "7.921904985264139",
            "lat": "51.73984362732579"
        }
    },
    {
        "model": "authentication.ZipCode",
        "pk": 75,
        "fields": {
            "id": 75,
            "zip_code": "21702",
            "city": "Ahlerstedt",
            "lon": "9.439135058285661",
            "lat": "53.3943137549496"
        }
    },
    {
        "model": "authentication.ZipCode",
        "pk": 76,
        "fields": {
            "id": 76,
            "zip_code": "06313",
            "city": "Ahlsdorf",
            "lon": "11.475395232451902",
            "lat": "51.53040134771771"
        }
    },
    {
        "model": "authentication.ZipCode",
        "pk": 77,
        "fields": {
            "id": 77,
            "zip_code": "98553",
            "city": "Ahlst\u00e4dt",
            "lon": "10.7568903413663",
            "lat": "50.5411925156981"
        }
    },
    {
        "model": "authentication.ZipCode",
        "pk": 78,
        "fields": {
            "id": 78,
            "zip_code": "34292",
            "city": "Ahnatal",
            "lon": "9.396450648278659",
            "lat": "51.3666096312963"
        }
    },
    {
        "model": "authentication.ZipCode",
        "pk": 79,
        "fields": {
            "id": 79,
            "zip_code": "24996",
            "city": "Ahneby",
            "lon": "9.74535453628552",
            "lat": "54.7184210115665"
        }
    },
    {
        "model": "authentication.ZipCode",
        "pk": 80,
        "fields": {
            "id": 80,
            "zip_code": "29353",
            "city": "Ahnsbeck",
            "lon": "10.2948413690919",
            "lat": "52.6098112122981"
        }
    },
    {
        "model": "authentication.ZipCode",
        "pk": 81,
        "fields": {
            "id": 81,
            "zip_code": "31708",
            "city": "Ahnsen",
            "lon": "9.09668083377696",
            "lat": "52.260105452827794"
        }
    },
    {
        "model": "authentication.ZipCode",
        "pk": 82,
        "fields": {
            "id": 82,
            "zip_code": "94345",
            "city": "Aholfing",
            "lon": "12.4784891572332",
            "lat": "48.9363626134704"
        }
    },
    {
        "model": "authentication.ZipCode",
        "pk": 83,
        "fields": {
            "id": 83,
            "zip_code": "94527",
            "city": "Aholming",
            "lon": "12.891925886154",
            "lat": "48.735555000668604"
        }
    },
    {
        "model": "authentication.ZipCode",
        "pk": 84,
        "fields": {
            "id": 84,
            "zip_code": "74744",
            "city": "Ahorn",
            "lon": "9.544544573294491",
            "lat": "49.4930607302584"
        }
    },
    {
        "model": "authentication.ZipCode",
        "pk": 85,
        "fields": {
            "id": 85,
            "zip_code": "96482",
            "city": "Ahorn",
            "lon": "10.9260089782649",
            "lat": "50.2267608659179"
        }
    },
    {
        "model": "authentication.ZipCode",
        "pk": 86,
        "fields": {
            "id": 86,
            "zip_code": "95491",
            "city": "Ahorntal",
            "lon": "11.4424960988251",
            "lat": "49.8487623005264"
        }
    },
    {
        "model": "authentication.ZipCode",
        "pk": 87,
        "fields": {
            "id": 87,
            "zip_code": "53506",
            "city": "Ahrbr\u00fcck",
            "lon": "7.01027830457433",
            "lat": "50.468162919067204"
        }
    },
    {
        "model": "authentication.ZipCode",
        "pk": 88,
        "fields": {
            "id": 88,
            "zip_code": "23623",
            "city": "Ahrensb\u00f6k",
            "lon": "10.565292403249499",
            "lat": "54.003852764666796"
        }
    },
    {
        "model": "authentication.ZipCode",
        "pk": 89,
        "fields": {
            "id": 89,
            "zip_code": "22926",
            "city": "Ahrensburg",
            "lon": "10.2358265919012",
            "lat": "53.67096678707439"
        }
    },
    {
        "model": "authentication.ZipCode",
        "pk": 90,
        "fields": {
            "id": 90,
            "zip_code": "16356",
            "city": "Ahrensfelde",
            "lon": "13.696580490087198",
            "lat": "52.632003703578704"
        }
    },
    {
        "model": "authentication.ZipCode",
        "pk": 91,
        "fields": {
            "id": 91,
            "zip_code": "18320",
            "city": "Ahrenshagen-Daskow",
            "lon": "12.61841476326",
            "lat": "54.2452742366941"
        }
    },
    {
        "model": "authentication.ZipCode",
        "pk": 92,
        "fields": {
            "id": 92,
            "zip_code": "25853",
            "city": "Ahrensh\u00f6ft",
            "lon": "9.06629644749699",
            "lat": "54.592932805889"
        }
    },
    {
        "model": "authentication.ZipCode",
        "pk": 93,
        "fields": {
            "id": 93,
            "zip_code": "18347",
            "city": "Ahrenshoop",
            "lon": "12.3630916165539",
            "lat": "54.306524680082"
        }
    },
    {
        "model": "authentication.ZipCode",
        "pk": 94,
        "fields": {
            "id": 94,
            "zip_code": "25885",
            "city": "Ahrenvi\u00f6l",
            "lon": "9.21982055830853",
            "lat": "54.5225373280712"
        }
    },
    {
        "model": "authentication.ZipCode",
        "pk": 95,
        "fields": {
            "id": 95,
            "zip_code": "24896",
            "city": "Ahrenvi\u00f6lfeld",
            "lon": "9.31423620079866",
            "lat": "54.518882739328006"
        }
    },
    {
        "model": "authentication.ZipCode",
        "pk": 96,
        "fields": {
            "id": 96,
            "zip_code": "25885",
            "city": "Ahrenvi\u00f6lfeld",
            "lon": "9.21982055830853",
            "lat": "54.5225373280712"
        }
    },
    {
        "model": "authentication.ZipCode",
        "pk": 97,
        "fields": {
            "id": 97,
            "zip_code": "86551",
            "city": "Aichach",
            "lon": "11.1213252667589",
            "lat": "48.4473886225502"
        }
    },
    {
        "model": "authentication.ZipCode",
        "pk": 98,
        "fields": {
            "id": 98,
            "zip_code": "94529",
            "city": "Aicha vorm Wald",
            "lon": "13.3086219720194",
            "lat": "48.6766248005049"
        }
    },
    {
        "model": "authentication.ZipCode",
        "pk": 99,
        "fields": {
            "id": 99,
            "zip_code": "73101",
            "city": "Aichelberg",
            "lon": "9.56667888338747",
            "lat": "48.6324696849498"
        }
    },
    {
        "model": "authentication.ZipCode",
        "pk": 100,
        "fields": {
            "id": 100,
            "zip_code": "86479",
            "city": "Aichen",
            "lon": "10.5372224002881",
            "lat": "48.232912234757"
        }
    },
    {
        "model": "authentication.ZipCode",
        "pk": 101,
        "fields": {
            "id": 101,
            "zip_code": "78733",
            "city": "Aichhalden",
            "lon": "8.41560725014075",
            "lat": "48.28023296309179"
        }
    },
    {
        "model": "authentication.ZipCode",
        "pk": 102,
        "fields": {
            "id": 102,
            "zip_code": "88317",
            "city": "Aichstetten",
            "lon": "10.0602445964614",
            "lat": "47.892764550414704"
        }
    },
    {
        "model": "authentication.ZipCode",
        "pk": 103,
        "fields": {
            "id": 103,
            "zip_code": "72631",
            "city": "Aichtal",
            "lon": "9.21816494879645",
            "lat": "48.6266376180892"
        }
    },
    {
        "model": "authentication.ZipCode",
        "pk": 104,
        "fields": {
            "id": 104,
            "zip_code": "73773",
            "city": "Aichwald",
            "lon": "9.38489588055837",
            "lat": "48.7635825442029"
        }
    },
    {
        "model": "authentication.ZipCode",
        "pk": 105,
        "fields": {
            "id": 105,
            "zip_code": "94501",
            "city": "Aidenbach",
            "lon": "13.0736651674344",
            "lat": "48.579494230679295"
        }
    },
    {
        "model": "authentication.ZipCode",
        "pk": 106,
        "fields": {
            "id": 106,
            "zip_code": "97491",
            "city": "Aidhausen",
            "lon": "10.456395101238199",
            "lat": "50.1597743069901"
        }
    },
    {
        "model": "authentication.ZipCode",
        "pk": 107,
        "fields": {
            "id": 107,
            "zip_code": "71134",
            "city": "Aidlingen",
            "lon": "8.88247286372984",
            "lat": "48.6792756102954"
        }
    },
    {
        "model": "authentication.ZipCode",
        "pk": 108,
        "fields": {
            "id": 108,
            "zip_code": "84089",
            "city": "Aiglsbach",
            "lon": "11.7140745220622",
            "lat": "48.69142299873071"
        }
    },
    {
        "model": "authentication.ZipCode",
        "pk": 109,
        "fields": {
            "id": 109,
            "zip_code": "56459",
            "city": "Ailertchen",
            "lon": "7.94303572949632",
            "lat": "50.56774692530829"
        }
    },
    {
        "model": "authentication.ZipCode",
        "pk": 110,
        "fields": {
            "id": 110,
            "zip_code": "86447",
            "city": "Aindling",
            "lon": "10.948701784518398",
            "lat": "48.513043440299704"
        }
    },
    {
        "model": "authentication.ZipCode",
        "pk": 111,
        "fields": {
            "id": 111,
            "zip_code": "83404",
            "city": "Ainring",
            "lon": "12.924974592488502",
            "lat": "47.8226533513411"
        }
    },
    {
        "model": "authentication.ZipCode",
        "pk": 112,
        "fields": {
            "id": 112,
            "zip_code": "89344",
            "city": "Aislingen",
            "lon": "10.4516309967705",
            "lat": "48.5090910000276"
        }
    },
    {
        "model": "authentication.ZipCode",
        "pk": 113,
        "fields": {
            "id": 113,
            "zip_code": "94330",
            "city": "Aiterhofen",
            "lon": "12.6255534888327",
            "lat": "48.8417425454916"
        }
    },
    {
        "model": "authentication.ZipCode",
        "pk": 114,
        "fields": {
            "id": 114,
            "zip_code": "79677",
            "city": "Aitern",
            "lon": "7.8930267654249295",
            "lat": "47.7897143932156"
        }
    },
    {
        "model": "authentication.ZipCode",
        "pk": 115,
        "fields": {
            "id": 115,
            "zip_code": "88319",
            "city": "Aitrach",
            "lon": "10.0607747727466",
            "lat": "47.9323633460784"
        }
    },
    {
        "model": "authentication.ZipCode",
        "pk": 116,
        "fields": {
            "id": 116,
            "zip_code": "87648",
            "city": "Aitrang",
            "lon": "10.515618328745301",
            "lat": "47.825451353153895"
        }
    },
    {
        "model": "authentication.ZipCode",
        "pk": 117,
        "fields": {
            "id": 117,
            "zip_code": "06385",
            "city": "Aken (Elbe)",
            "lon": "12.0570947419085",
            "lat": "51.847026077422704"
        }
    },
    {
        "model": "authentication.ZipCode",
        "pk": 118,
        "fields": {
            "id": 118,
            "zip_code": "06386",
            "city": "Aken (Elbe)",
            "lon": "12.0878818893545",
            "lat": "51.7779652009762"
        }
    },
    {
        "model": "authentication.ZipCode",
        "pk": 119,
        "fields": {
            "id": 119,
            "zip_code": "39615",
            "city": "Aland",
            "lon": "11.7233936634321",
            "lat": "52.9177655724183"
        }
    },
    {
        "model": "authentication.ZipCode",
        "pk": 120,
        "fields": {
            "id": 120,
            "zip_code": "83544",
            "city": "Albaching",
            "lon": "12.1129026619785",
            "lat": "48.108280261493995"
        }
    },
    {
        "model": "authentication.ZipCode",
        "pk": 121,
        "fields": {
            "id": 121,
            "zip_code": "79774",
            "city": "Albbruck",
            "lon": "8.123943470359679",
            "lat": "47.62456513394711"
        }
    },
    {
        "model": "authentication.ZipCode",
        "pk": 122,
        "fields": {
            "id": 122,
            "zip_code": "25767",
            "city": "Albersdorf",
            "lon": "9.30891379197311",
            "lat": "54.15633579594461"
        }
    },
    {
        "model": "authentication.ZipCode",
        "pk": 123,
        "fields": {
            "id": 123,
            "zip_code": "07646",
            "city": "Albersdorf",
            "lon": "11.753046417955199",
            "lat": "50.846977992412604"
        }
    },
    {
        "model": "authentication.ZipCode",
        "pk": 124,
        "fields": {
            "id": 124,
            "zip_code": "73095",
            "city": "Albershausen",
            "lon": "9.55832710565616",
            "lat": "48.6904983652915"
        }
    },
    {
        "model": "authentication.ZipCode",
        "pk": 125,
        "fields": {
            "id": 125,
            "zip_code": "76857",
            "city": "Albersweiler",
            "lon": "7.957001852922111",
            "lat": "49.2088930298899"
        }
    },
    {
        "model": "authentication.ZipCode",
        "pk": 126,
        "fields": {
            "id": 126,
            "zip_code": "97320",
            "city": "Albertshofen",
            "lon": "10.1703440936235",
            "lat": "49.7537126944059"
        }
    },
    {
        "model": "authentication.ZipCode",
        "pk": 127,
        "fields": {
            "id": 127,
            "zip_code": "66871",
            "city": "Albessen",
            "lon": "7.36300393742282",
            "lat": "49.5359471204744"
        }
    },
    {
        "model": "authentication.ZipCode",
        "pk": 128,
        "fields": {
            "id": 128,
            "zip_code": "55234",
            "city": "Albig",
            "lon": "8.104024381818629",
            "lat": "49.739792490885705"
        }
    },
    {
        "model": "authentication.ZipCode",
        "pk": 129,
        "fields": {
            "id": 129,
            "zip_code": "67308",
            "city": "Albisheim (Pfrimm)",
            "lon": "8.110171950943789",
            "lat": "49.6295026464598"
        }
    },
    {
        "model": "authentication.ZipCode",
        "pk": 130,
        "fields": {
            "id": 130,
            "zip_code": "23909",
            "city": "Albsfelde",
            "lon": "10.7586279893106",
            "lat": "53.7091686951855"
        }
    },
    {
        "model": "authentication.ZipCode",
        "pk": 131,
        "fields": {
            "id": 131,
            "zip_code": "72458",
            "city": "Albstadt",
            "lon": "9.02957528009092",
            "lat": "48.199150807085104"
        }
    },
    {
        "model": "authentication.ZipCode",
        "pk": 132,
        "fields": {
            "id": 132,
            "zip_code": "72459",
            "city": "Albstadt",
            "lon": "8.949900761550749",
            "lat": "48.231582615599606"
        }
    },
    {
        "model": "authentication.ZipCode",
        "pk": 133,
        "fields": {
            "id": 133,
            "zip_code": "72461",
            "city": "Albstadt",
            "lon": "9.018643865612711",
            "lat": "48.266565495886"
        }
    },
    {
        "model": "authentication.ZipCode",
        "pk": 134,
        "fields": {
            "id": 134,
            "zip_code": "52457",
            "city": "Aldenhoven",
            "lon": "6.2617784335433795",
            "lat": "50.89923597223989"
        }
    },
    {
        "model": "authentication.ZipCode",
        "pk": 135,
        "fields": {
            "id": 135,
            "zip_code": "94501",
            "city": "Aldersbach",
            "lon": "13.0736651674344",
            "lat": "48.579494230679295"
        }
    },
    {
        "model": "authentication.ZipCode",
        "pk": 136,
        "fields": {
            "id": 136,
            "zip_code": "78554",
            "city": "Aldingen",
            "lon": "8.68705693347507",
            "lat": "48.0965896968589"
        }
    },
    {
        "model": "authentication.ZipCode",
        "pk": 137,
        "fields": {
            "id": 137,
            "zip_code": "86733",
            "city": "Alerheim",
            "lon": "10.6327893119347",
            "lat": "48.8474467305055"
        }
    },
    {
        "model": "authentication.ZipCode",
        "pk": 138,
        "fields": {
            "id": 138,
            "zip_code": "91793",
            "city": "Alesheim",
            "lon": "10.86501370648",
            "lat": "49.0399879396968"
        }
    },
    {
        "model": "authentication.ZipCode",
        "pk": 139,
        "fields": {
            "id": 139,
            "zip_code": "86480",
            "city": "Aletshausen",
            "lon": "10.3755240126641",
            "lat": "48.1932160991405"
        }
    },
    {
        "model": "authentication.ZipCode",
        "pk": 140,
        "fields": {
            "id": 140,
            "zip_code": "56859",
            "city": "Alf",
            "lon": "7.11806650158444",
            "lat": "50.056536057965204"
        }
    },
    {
        "model": "authentication.ZipCode",
        "pk": 141,
        "fields": {
            "id": 141,
            "zip_code": "73553",
            "city": "Alfdorf",
            "lon": "9.70296288420464",
            "lat": "48.8605074227252"
        }
    },
    {
        "model": "authentication.ZipCode",
        "pk": 142,
        "fields": {
            "id": 142,
            "zip_code": "73655",
            "city": "Alfdorf",
            "lon": "9.60680491729727",
            "lat": "48.8068816674461"
        }
    },
    {
        "model": "authentication.ZipCode",
        "pk": 143,
        "fields": {
            "id": 143,
            "zip_code": "91236",
            "city": "Alfeld",
            "lon": "11.534848607803399",
            "lat": "49.431862448831204"
        }
    },
    {
        "model": "authentication.ZipCode",
        "pk": 144,
        "fields": {
            "id": 144,
            "zip_code": "31061",
            "city": "Alfeld (Leine)",
            "lon": "9.820776305844891",
            "lat": "51.9887322884355"
        }
    },
    {
        "model": "authentication.ZipCode",
        "pk": 145,
        "fields": {
            "id": 145,
            "zip_code": "49594",
            "city": "Alfhausen",
            "lon": "7.950846534304921",
            "lat": "52.498160214839494"
        }
    },
    {
        "model": "authentication.ZipCode",
        "pk": 146,
        "fields": {
            "id": 146,
            "zip_code": "56828",
            "city": "Alflen",
            "lon": "7.04252537036233",
            "lat": "50.1801712355933"
        }
    },
    {
        "model": "authentication.ZipCode",
        "pk": 147,
        "fields": {
            "id": 147,
            "zip_code": "27432",
            "city": "Alfstedt",
            "lon": "9.09232978758772",
            "lat": "53.4944207137241"
        }
    },
    {
        "model": "authentication.ZipCode",
        "pk": 148,
        "fields": {
            "id": 148,
            "zip_code": "53347",
            "city": "Alfter",
            "lon": "7.009378855793741",
            "lat": "50.709758868954204"
        }
    },
    {
        "model": "authentication.ZipCode",
        "pk": 149,
        "fields": {
            "id": 149,
            "zip_code": "31191",
            "city": "Algermissen",
            "lon": "9.9685800625515",
            "lat": "52.2638022718306"
        }
    },
    {
        "model": "authentication.ZipCode",
        "pk": 150,
        "fields": {
            "id": 150,
            "zip_code": "36211",
            "city": "Alheim",
            "lon": "9.659578488584051",
            "lat": "51.0293646543281"
        }
    },
    {
        "model": "authentication.ZipCode",
        "pk": 151,
        "fields": {
            "id": 151,
            "zip_code": "56332",
            "city": "Alken",
            "lon": "7.45482844234375",
            "lat": "50.25415873219111"
        }
    },
    {
        "model": "authentication.ZipCode",
        "pk": 152,
        "fields": {
            "id": 152,
            "zip_code": "99310",
            "city": "Alkersleben",
            "lon": "10.994794216914402",
            "lat": "50.8230782379951"
        }
    },
    {
        "model": "authentication.ZipCode",
        "pk": 153,
        "fields": {
            "id": 153,
            "zip_code": "25938",
            "city": "Alkersum",
            "lon": "8.502093073524371",
            "lat": "54.718994878644196"
        }
    },
    {
        "model": "authentication.ZipCode",
        "pk": 154,
        "fields": {
            "id": 154,
            "zip_code": "55758",
            "city": "Allenbach",
            "lon": "7.29000966521117",
            "lat": "49.7703057787484"
        }
    },
    {
        "model": "authentication.ZipCode",
        "pk": 155,
        "fields": {
            "id": 155,
            "zip_code": "35108",
            "city": "Allendorf",
            "lon": "8.66321450299502",
            "lat": "51.043616673056604"
        }
    },
    {
        "model": "authentication.ZipCode",
        "pk": 156,
        "fields": {
            "id": 156,
            "zip_code": "56370",
            "city": "Allendorf",
            "lon": "7.96059220540119",
            "lat": "50.276738847585705"
        }
    },
    {
        "model": "authentication.ZipCode",
        "pk": 157,
        "fields": {
            "id": 157,
            "zip_code": "07426",
            "city": "Allendorf",
            "lon": "11.110247671772498",
            "lat": "50.655254008518106"
        }
    },
    {
        "model": "authentication.ZipCode",
        "pk": 158,
        "fields": {
            "id": 158,
            "zip_code": "35469",
            "city": "Allendorf (Lumda)",
            "lon": "8.81952663825108",
            "lat": "50.6806668523775"
        }
    },
    {
        "model": "authentication.ZipCode",
        "pk": 159,
        "fields": {
            "id": 159,
            "zip_code": "55595",
            "city": "Allenfeld",
            "lon": "7.717568157297139",
            "lat": "49.8721627877536"
        }
    },
    {
        "model": "authentication.ZipCode",
        "pk": 160,
        "fields": {
            "id": 160,
            "zip_code": "78476",
            "city": "Allensbach",
            "lon": "9.07859152342783",
            "lat": "47.7379394666113"
        }
    },
    {
        "model": "authentication.ZipCode",
        "pk": 161,
        "fields": {
            "id": 161,
            "zip_code": "90584",
            "city": "Allersberg",
            "lon": "11.2388667928901",
            "lat": "49.24417418882071"
        }
    },
    {
        "model": "authentication.ZipCode",
        "pk": 162,
        "fields": {
            "id": 162,
            "zip_code": "85391",
            "city": "Allershausen",
            "lon": "11.5916075669353",
            "lat": "48.4344387934696"
        }
    },
    {
        "model": "authentication.ZipCode",
        "pk": 163,
        "fields": {
            "id": 163,
            "zip_code": "88422",
            "city": "Alleshausen",
            "lon": "9.61090318133526",
            "lat": "48.0833778905284"
        }
    },
    {
        "model": "authentication.ZipCode",
        "pk": 164,
        "fields": {
            "id": 164,
            "zip_code": "82239",
            "city": "Alling",
            "lon": "11.283367639033502",
            "lat": "48.1455193849891"
        }
    },
    {
        "model": "authentication.ZipCode",
        "pk": 165,
        "fields": {
            "id": 165,
            "zip_code": "86695",
            "city": "Allmannshofen",
            "lon": "10.818256368144901",
            "lat": "48.6068763428279"
        }
    },
    {
        "model": "authentication.ZipCode",
        "pk": 166,
        "fields": {
            "id": 166,
            "zip_code": "88348",
            "city": "Allmannsweiler",
            "lon": "9.510095696951",
            "lat": "48.0128837445215"
        }
    },
    {
        "model": "authentication.ZipCode",
        "pk": 167,
        "fields": {
            "id": 167,
            "zip_code": "89604",
            "city": "Allmendingen",
            "lon": "9.70451385921047",
            "lat": "48.3358069922015"
        }
    },
    {
        "model": "authentication.ZipCode",
        "pk": 168,
        "fields": {
            "id": 168,
            "zip_code": "71573",
            "city": "Allmersbach im Tal",
            "lon": "9.4683426589371",
            "lat": "48.90673920690371"
        }
    },
    {
        "model": "authentication.ZipCode",
        "pk": 169,
        "fields": {
            "id": 169,
            "zip_code": "06542",
            "city": "Allstedt",
            "lon": "11.418057395322302",
            "lat": "51.4113349122114"
        }
    },
    {
        "model": "authentication.ZipCode",
        "pk": 170,
        "fields": {
            "id": 170,
            "zip_code": "25821",
            "city": "Almdorf",
            "lon": "8.940295526771962",
            "lat": "54.6089354338986"
        }
    },
    {
        "model": "authentication.ZipCode",
        "pk": 171,
        "fields": {
            "id": 171,
            "zip_code": "57610",
            "city": "Almersbach",
            "lon": "7.655386812871639",
            "lat": "50.684412946734895"
        }
    },
    {
        "model": "authentication.ZipCode",
        "pk": 172,
        "fields": {
            "id": 172,
            "zip_code": "46519",
            "city": "Alpen",
            "lon": "6.48799515448482",
            "lat": "51.597035438313206"
        }
    },
    {
        "model": "authentication.ZipCode",
        "pk": 173,
        "fields": {
            "id": 173,
            "zip_code": "57642",
            "city": "Alpenrod",
            "lon": "7.8662117392994",
            "lat": "50.6381661178461"
        }
    },
    {
        "model": "authentication.ZipCode",
        "pk": 174,
        "fields": {
            "id": 174,
            "zip_code": "57647",
            "city": "Alpenrod",
            "lon": "7.8972617627129695",
            "lat": "50.626837174235"
        }
    },
    {
        "model": "authentication.ZipCode",
        "pk": 175,
        "fields": {
            "id": 175,
            "zip_code": "99195",
            "city": "Alperstedt",
            "lon": "11.085265744003902",
            "lat": "51.082040550287296"
        }
    },
    {
        "model": "authentication.ZipCode",
        "pk": 176,
        "fields": {
            "id": 176,
            "zip_code": "72275",
            "city": "Alpirsbach",
            "lon": "8.40768898304984",
            "lat": "48.360228718094504"
        }
    },
    {
        "model": "authentication.ZipCode",
        "pk": 177,
        "fields": {
            "id": 177,
            "zip_code": "56237",
            "city": "Alsbach",
            "lon": "7.66893374279109",
            "lat": "50.4827889943134"
        }
    },
    {
        "model": "authentication.ZipCode",
        "pk": 178,
        "fields": {
            "id": 178,
            "zip_code": "64665",
            "city": "Alsbach-H\u00e4hnlein",
            "lon": "8.592696548631329",
            "lat": "49.74268001969211"
        }
    },
    {
        "model": "authentication.ZipCode",
        "pk": 179,
        "fields": {
            "id": 179,
            "zip_code": "52477",
            "city": "Alsdorf",
            "lon": "6.177269531534329",
            "lat": "50.869191245943604"
        }
    },
    {
        "model": "authentication.ZipCode",
        "pk": 180,
        "fields": {
            "id": 180,
            "zip_code": "57518",
            "city": "Alsdorf",
            "lon": "7.86819543995291",
            "lat": "50.7755352337981"
        }
    },
    {
        "model": "authentication.ZipCode",
        "pk": 181,
        "fields": {
            "id": 181,
            "zip_code": "54668",
            "city": "Alsdorf",
            "lon": "6.43185020149701",
            "lat": "49.867572041452"
        }
    },
    {
        "model": "authentication.ZipCode",
        "pk": 182,
        "fields": {
            "id": 182,
            "zip_code": "67821",
            "city": "Alsenz",
            "lon": "7.822529575599231",
            "lat": "49.724238853383206"
        }
    },
    {
        "model": "authentication.ZipCode",
        "pk": 183,
        "fields": {
            "id": 183,
            "zip_code": "36304",
            "city": "Alsfeld",
            "lon": "9.29650822430572",
            "lat": "50.7624665715961"
        }
    },
    {
        "model": "authentication.ZipCode",
        "pk": 184,
        "fields": {
            "id": 184,
            "zip_code": "67577",
            "city": "Alsheim",
            "lon": "8.32533793597785",
            "lat": "49.763919699383"
        }
    },
    {
        "model": "authentication.ZipCode",
        "pk": 185,
        "fields": {
            "id": 185,
            "zip_code": "06425",
            "city": "Alsleben",
            "lon": "11.673118721261302",
            "lat": "51.708513953304504"
        }
    },
    {
        "model": "authentication.ZipCode",
        "pk": 186,
        "fields": {
            "id": 186,
            "zip_code": "73776",
            "city": "Altbach",
            "lon": "9.378984263341971",
            "lat": "48.72719049448379"
        }
    },
    {
        "model": "authentication.ZipCode",
        "pk": 187,
        "fields": {
            "id": 187,
            "zip_code": "24848",
            "city": "Alt Bennebek",
            "lon": "9.46990392058389",
            "lat": "54.4085735338722"
        }
    },
    {
        "model": "authentication.ZipCode",
        "pk": 188,
        "fields": {
            "id": 188,
            "zip_code": "18233",
            "city": "Alt Bukow",
            "lon": "11.6705239804314",
            "lat": "54.0118302657471"
        }
    },
    {
        "model": "authentication.ZipCode",
        "pk": 189,
        "fields": {
            "id": 189,
            "zip_code": "03229",
            "city": "Altd\u00f6bern",
            "lon": "14.0576959342314",
            "lat": "51.665599416739205"
        }
    },
    {
        "model": "authentication.ZipCode",
        "pk": 190,
        "fields": {
            "id": 190,
            "zip_code": "84032",
            "city": "Altdorf",
            "lon": "12.087942937506401",
            "lat": "48.561495395132205"
        }
    },
    {
        "model": "authentication.ZipCode",
        "pk": 191,
        "fields": {
            "id": 191,
            "zip_code": "71155",
            "city": "Altdorf",
            "lon": "9.00540323235042",
            "lat": "48.6115454068511"
        }
    },
    {
        "model": "authentication.ZipCode",
        "pk": 192,
        "fields": {
            "id": 192,
            "zip_code": "72655",
            "city": "Altdorf",
            "lon": "9.27700195722058",
            "lat": "48.5943167188599"
        }
    },
    {
        "model": "authentication.ZipCode",
        "pk": 193,
        "fields": {
            "id": 193,
            "zip_code": "67482",
            "city": "Altdorf",
            "lon": "8.19764983477519",
            "lat": "49.2848908258712"
        }
    },
    {
        "model": "authentication.ZipCode",
        "pk": 194,
        "fields": {
            "id": 194,
            "zip_code": "90518",
            "city": "Altdorf bei N\u00fcrnberg",
            "lon": "11.3813515701051",
            "lat": "49.394525401921705"
        }
    },
    {
        "model": "authentication.ZipCode",
        "pk": 195,
        "fields": {
            "id": 195,
            "zip_code": "24782",
            "city": "Alt Duvenstedt",
            "lon": "9.671683871229279",
            "lat": "54.328554202488796"
        }
    },
    {
        "model": "authentication.ZipCode",
        "pk": 196,
        "fields": {
            "id": 196,
            "zip_code": "24791",
            "city": "Alt Duvenstedt",
            "lon": "9.644067340573221",
            "lat": "54.358919799080496"
        }
    },
    {
        "model": "authentication.ZipCode",
        "pk": 197,
        "fields": {
            "id": 197,
            "zip_code": "24811",
            "city": "Alt Duvenstedt",
            "lon": "9.61055277087657",
            "lat": "54.4048745029204"
        }
    },
    {
        "model": "authentication.ZipCode",
        "pk": 198,
        "fields": {
            "id": 198,
            "zip_code": "18573",
            "city": "Altef\u00e4hr",
            "lon": "13.24216814062",
            "lat": "54.361474745870105"
        }
    },
    {
        "model": "authentication.ZipCode",
        "pk": 199,
        "fields": {
            "id": 199,
            "zip_code": "93087",
            "city": "Alteglofsheim",
            "lon": "12.202584073921098",
            "lat": "48.9152632784133"
        }
    },
    {
        "model": "authentication.ZipCode",
        "pk": 200,
        "fields": {
            "id": 200,
            "zip_code": "58762",
            "city": "Altena",
            "lon": "7.68921794863737",
            "lat": "51.286808457621405"
        }
    },
    {
        "model": "authentication.ZipCode",
        "pk": 201,
        "fields": {
            "id": 201,
            "zip_code": "53505",
            "city": "Altenahr",
            "lon": "6.95880069881994",
            "lat": "50.528694980156004"
        }
    },
    {
        "model": "authentication.ZipCode",
        "pk": 202,
        "fields": {
            "id": 202,
            "zip_code": "55585",
            "city": "Altenbamberg",
            "lon": "7.7924529602266",
            "lat": "49.781204612733404"
        }
    },
    {
        "model": "authentication.ZipCode",
        "pk": 203,
        "fields": {
            "id": 203,
            "zip_code": "33184",
            "city": "Altenbeken",
            "lon": "8.93829450636783",
            "lat": "51.742968395341904"
        }
    },
    {
        "model": "authentication.ZipCode",
        "pk": 204,
        "fields": {
            "id": 204,
            "zip_code": "01773",
            "city": "Altenberg",
            "lon": "13.7227980508795",
            "lat": "50.7701863367731"
        }
    },
    {
        "model": "authentication.ZipCode",
        "pk": 205,
        "fields": {
            "id": 205,
            "zip_code": "01778",
            "city": "Altenberg",
            "lon": "13.8426295641397",
            "lat": "50.765069861909105"
        }
    },
    {
        "model": "authentication.ZipCode",
        "pk": 206,
        "fields": {
            "id": 206,
            "zip_code": "07768",
            "city": "Altenberga",
            "lon": "11.551710689860402",
            "lat": "50.8010541574023"
        }
    },
    {
        "model": "authentication.ZipCode",
        "pk": 207,
        "fields": {
            "id": 207,
            "zip_code": "48341",
            "city": "Altenberge",
            "lon": "7.476973158192049",
            "lat": "52.040661130981505"
        }
    },
    {
        "model": "authentication.ZipCode",
        "pk": 208,
        "fields": {
            "id": 208,
            "zip_code": "07338",
            "city": "Altenbeuthen",
            "lon": "11.4943261047182",
            "lat": "50.584649703509704"
        }
    },
    {
        "model": "authentication.ZipCode",
        "pk": 209,
        "fields": {
            "id": 209,
            "zip_code": "97901",
            "city": "Altenbuch",
            "lon": "9.408654484234178",
            "lat": "49.844475178202295"
        }
    },
    {
        "model": "authentication.ZipCode",
        "pk": 210,
        "fields": {
            "id": 210,
            "zip_code": "04600",
            "city": "Altenburg",
            "lon": "12.439608260074598",
            "lat": "50.9787274538803"
        }
    },
    {
        "model": "authentication.ZipCode",
        "pk": 211,
        "fields": {
            "id": 211,
            "zip_code": "65624",
            "city": "Altendiez",
            "lon": "7.9620053458558395",
            "lat": "50.3719679874183"
        }
    },
    {
        "model": "authentication.ZipCode",
        "pk": 212,
        "fields": {
            "id": 212,
            "zip_code": "92540",
            "city": "Altendorf",
            "lon": "12.2908020782646",
            "lat": "49.42059065351361"
        }
    },
    {
        "model": "authentication.ZipCode",
        "pk": 213,
        "fields": {
            "id": 213,
            "zip_code": "96146",
            "city": "Altendorf",
            "lon": "11.0109761680701",
            "lat": "49.7981900050756"
        }
    },
    {
        "model": "authentication.ZipCode",
        "pk": 214,
        "fields": {
            "id": 214,
            "zip_code": "66885",
            "city": "Altenglan",
            "lon": "7.46587782079608",
            "lat": "49.553347290473006"
        }
    },
    {
        "model": "authentication.ZipCode",
        "pk": 215,
        "fields": {
            "id": 215,
            "zip_code": "17091",
            "city": "Altenhagen",
            "lon": "13.108093605338302",
            "lat": "53.6593717367504"
        }
    },
    {
        "model": "authentication.ZipCode",
        "pk": 216,
        "fields": {
            "id": 216,
            "zip_code": "39343",
            "city": "Altenhausen",
            "lon": "11.2806359202684",
            "lat": "52.2382487343188"
        }
    },
    {
        "model": "authentication.ZipCode",
        "pk": 217,
        "fields": {
            "id": 217,
            "zip_code": "24340",
            "city": "Altenhof",
            "lon": "9.824126284178199",
            "lat": "54.4643114249795"
        }
    },
    {
        "model": "authentication.ZipCode",
        "pk": 218,
        "fields": {
            "id": 218,
            "zip_code": "17209",
            "city": "Altenhof",
            "lon": "12.488119323794901",
            "lat": "53.3453201928986"
        }
    },
    {
        "model": "authentication.ZipCode",
        "pk": 219,
        "fields": {
            "id": 219,
            "zip_code": "24161",
            "city": "Altenholz",
            "lon": "10.1053996797824",
            "lat": "54.3976650823174"
        }
    },
    {
        "model": "authentication.ZipCode",
        "pk": 220,
        "fields": {
            "id": 220,
            "zip_code": "66903",
            "city": "Altenkirchen",
            "lon": "7.336855530507241",
            "lat": "49.438156163392"
        }
    },
    {
        "model": "authentication.ZipCode",
        "pk": 221,
        "fields": {
            "id": 221,
            "zip_code": "18556",
            "city": "Altenkirchen",
            "lon": "13.317555965776",
            "lat": "54.630265055301706"
        }
    },
    {
        "model": "authentication.ZipCode",
        "pk": 222,
        "fields": {
            "id": 222,
            "zip_code": "57610",
            "city": "Altenkirchen (Westerwald)",
            "lon": "7.655386812871639",
            "lat": "50.684412946734895"
        }
    },
    {
        "model": "authentication.ZipCode",
        "pk": 223,
        "fields": {
            "id": 223,
            "zip_code": "23730",
            "city": "Altenkrempe",
            "lon": "10.8167181349035",
            "lat": "54.12749446090589"
        }
    },
    {
        "model": "authentication.ZipCode",
        "pk": 224,
        "fields": {
            "id": 224,
            "zip_code": "96264",
            "city": "Altenkunstadt",
            "lon": "11.2329832448599",
            "lat": "50.121816845268796"
        }
    },
    {
        "model": "authentication.ZipCode",
        "pk": 225,
        "fields": {
            "id": 225,
            "zip_code": "83352",
            "city": "Altenmarkt an der Alz",
            "lon": "12.499577869120701",
            "lat": "48.004565640734704"
        }
    },
    {
        "model": "authentication.ZipCode",
        "pk": 226,
        "fields": {
            "id": 226,
            "zip_code": "29575",
            "city": "Altenmedingen",
            "lon": "10.620769050438",
            "lat": "53.1476515357152"
        }
    },
    {
        "model": "authentication.ZipCode",
        "pk": 227,
        "fields": {
            "id": 227,
            "zip_code": "25335",
            "city": "Altenmoor",
            "lon": "9.61108586405598",
            "lat": "53.7583740258084"
        }
    },
    {
        "model": "authentication.ZipCode",
        "pk": 228,
        "fields": {
            "id": 228,
            "zip_code": "86450",
            "city": "Altenm\u00fcnster",
            "lon": "10.5818479258458",
            "lat": "48.4648833837451"
        }
    },
    {
        "model": "authentication.ZipCode",
        "pk": 229,
        "fields": {
            "id": 229,
            "zip_code": "18445",
            "city": "Altenpleen",
            "lon": "12.9843189938941",
            "lat": "54.3776506283368"
        }
    },
    {
        "model": "authentication.ZipCode",
        "pk": 230,
        "fields": {
            "id": 230,
            "zip_code": "72657",
            "city": "Altenriet",
            "lon": "9.21733591331181",
            "lat": "48.5933325353088"
        }
    },
    {
        "model": "authentication.ZipCode",
        "pk": 231,
        "fields": {
            "id": 231,
            "zip_code": "63674",
            "city": "Altenstadt",
            "lon": "8.9532213212274",
            "lat": "50.2873228460581"
        }
    },
    {
        "model": "authentication.ZipCode",
        "pk": 232,
        "fields": {
            "id": 232,
            "zip_code": "86972",
            "city": "Altenstadt",
            "lon": "10.860053384627399",
            "lat": "47.8248660084782"
        }
    },
    {
        "model": "authentication.ZipCode",
        "pk": 233,
        "fields": {
            "id": 233,
            "zip_code": "89281",
            "city": "Altenstadt",
            "lon": "10.130151607116598",
            "lat": "48.167814790924"
        }
    },
    {
        "model": "authentication.ZipCode",
        "pk": 234,
        "fields": {
            "id": 234,
            "zip_code": "92665",
            "city": "Altenstadt an der Waldnaab",
            "lon": "12.116427578527698",
            "lat": "49.7539988962467"
        }
    },
    {
        "model": "authentication.ZipCode",
        "pk": 235,
        "fields": {
            "id": 235,
            "zip_code": "72213",
            "city": "Altensteig",
            "lon": "8.60346316750283",
            "lat": "48.5965917480013"
        }
    },
    {
        "model": "authentication.ZipCode",
        "pk": 236,
        "fields": {
            "id": 236,
            "zip_code": "93177",
            "city": "Altenthann",
            "lon": "12.298059215123999",
            "lat": "49.0913402036706"
        }
    },
    {
        "model": "authentication.ZipCode",
        "pk": 237,
        "fields": {
            "id": 237,
            "zip_code": "17087",
            "city": "Altentreptow",
            "lon": "13.2412409057052",
            "lat": "53.69455914064011"
        }
    },
    {
        "model": "authentication.ZipCode",
        "pk": 238,
        "fields": {
            "id": 238,
            "zip_code": "56288",
            "city": "Alterk\u00fclz",
            "lon": "7.450665630671389",
            "lat": "50.061970842995606"
        }
    },
    {
        "model": "authentication.ZipCode",
        "pk": 239,
        "fields": {
            "id": 239,
            "zip_code": "97237",
            "city": "Altertheim",
            "lon": "9.7463720847022",
            "lat": "49.725664839785004"
        }
    },
    {
        "model": "authentication.ZipCode",
        "pk": 240,
        "fields": {
            "id": 240,
            "zip_code": "84169",
            "city": "Altfraunhofen",
            "lon": "12.189296528466",
            "lat": "48.446192288586396"
        }
    },
    {
        "model": "authentication.ZipCode",
        "pk": 241,
        "fields": {
            "id": 241,
            "zip_code": "82278",
            "city": "Althegnenberg",
            "lon": "11.072593513294402",
            "lat": "48.229330733328"
        }
    },
    {
        "model": "authentication.ZipCode",
        "pk": 242,
        "fields": {
            "id": 242,
            "zip_code": "88499",
            "city": "Altheim",
            "lon": "9.45644294663338",
            "lat": "48.1681807239334"
        }
    },
    {
        "model": "authentication.ZipCode",
        "pk": 243,
        "fields": {
            "id": 243,
            "zip_code": "89605",
            "city": "Altheim",
            "lon": "9.76774945288607",
            "lat": "48.3346815060077"
        }
    },
    {
        "model": "authentication.ZipCode",
        "pk": 244,
        "fields": {
            "id": 244,
            "zip_code": "89174",
            "city": "Altheim (Alb)",
            "lon": "10.0153651980674",
            "lat": "48.584029405758"
        }
    },
    {
        "model": "authentication.ZipCode",
        "pk": 245,
        "fields": {
            "id": 245,
            "zip_code": "75382",
            "city": "Althengstett",
            "lon": "8.789228676307749",
            "lat": "48.73108347807779"
        }
    },
    {
        "model": "authentication.ZipCode",
        "pk": 246,
        "fields": {
            "id": 246,
            "zip_code": "66484",
            "city": "Althornbach",
            "lon": "7.45473675359761",
            "lat": "49.2291899896328"
        }
    },
    {
        "model": "authentication.ZipCode",
        "pk": 247,
        "fields": {
            "id": 247,
            "zip_code": "71566",
            "city": "Alth\u00fctte",
            "lon": "9.562700856475509",
            "lat": "48.9336363200754"
        }
    },
    {
        "model": "authentication.ZipCode",
        "pk": 248,
        "fields": {
            "id": 248,
            "zip_code": "16247",
            "city": "Alth\u00fcttendorf",
            "lon": "13.767473483538199",
            "lat": "52.981242089205395"
        }
    },
    {
        "model": "authentication.ZipCode",
        "pk": 249,
        "fields": {
            "id": 249,
            "zip_code": "17179",
            "city": "Altkalen",
            "lon": "12.677582319335698",
            "lat": "53.96033833562"
        }
    },
    {
        "model": "authentication.ZipCode",
        "pk": 250,
        "fields": {
            "id": 250,
            "zip_code": "19288",
            "city": "Alt Krenzlin",
            "lon": "11.421000261905",
            "lat": "53.3371046815249"
        }
    },
    {
        "model": "authentication.ZipCode",
        "pk": 251,
        "fields": {
            "id": 251,
            "zip_code": "15345",
            "city": "Altlandsberg",
            "lon": "13.9110392055143",
            "lat": "52.57330165057879"
        }
    },
    {
        "model": "authentication.ZipCode",
        "pk": 252,
        "fields": {
            "id": 252,
            "zip_code": "56858",
            "city": "Altlay",
            "lon": "7.26864442669333",
            "lat": "50.0455307796023"
        }
    },
    {
        "model": "authentication.ZipCode",
        "pk": 253,
        "fields": {
            "id": 253,
            "zip_code": "67316",
            "city": "Altleiningen",
            "lon": "8.039118291283389",
            "lat": "49.4983469530696"
        }
    },
    {
        "model": "authentication.ZipCode",
        "pk": 254,
        "fields": {
            "id": 254,
            "zip_code": "67317",
            "city": "Altleiningen",
            "lon": "8.07806432341969",
            "lat": "49.49784784095039"
        }
    },
    {
        "model": "authentication.ZipCode",
        "pk": 255,
        "fields": {
            "id": 255,
            "zip_code": "68804",
            "city": "Altlu\u00dfheim",
            "lon": "8.50554707459008",
            "lat": "49.2974014282187"
        }
    },
    {
        "model": "authentication.ZipCode",
        "pk": 256,
        "fields": {
            "id": 256,
            "zip_code": "93336",
            "city": "Altmannstein",
            "lon": "11.618328160263697",
            "lat": "48.9069061952585"
        }
    },
    {
        "model": "authentication.ZipCode",
        "pk": 257,
        "fields": {
            "id": 257,
            "zip_code": "39606",
            "city": "Altm\u00e4rkische H\u00f6he",
            "lon": "11.7092567081548",
            "lat": "52.7896188270748"
        }
    },
    {
        "model": "authentication.ZipCode",
        "pk": 258,
        "fields": {
            "id": 258,
            "zip_code": "39615",
            "city": "Altm\u00e4rkische H\u00f6he",
            "lon": "11.7233936634321",
            "lat": "52.9177655724183"
        }
    },
    {
        "model": "authentication.ZipCode",
        "pk": 259,
        "fields": {
            "id": 259,
            "zip_code": "39615",
            "city": "Altm\u00e4rkische Wische",
            "lon": "11.7233936634321",
            "lat": "52.9177655724183"
        }
    },
    {
        "model": "authentication.ZipCode",
        "pk": 260,
        "fields": {
            "id": 260,
            "zip_code": "19069",
            "city": "Alt Meteln",
            "lon": "11.396278199188199",
            "lat": "53.725716057031406"
        }
    },
    {
        "model": "authentication.ZipCode",
        "pk": 261,
        "fields": {
            "id": 261,
            "zip_code": "09648",
            "city": "Altmittweida",
            "lon": "12.9852705366061",
            "lat": "50.988671375747096"
        }
    },
    {
        "model": "authentication.ZipCode",
        "pk": 262,
        "fields": {
            "id": 262,
            "zip_code": "23881",
            "city": "Alt M\u00f6lln",
            "lon": "10.609447852835599",
            "lat": "53.6289924582298"
        }
    },
    {
        "model": "authentication.ZipCode",
        "pk": 263,
        "fields": {
            "id": 263,
            "zip_code": "85250",
            "city": "Altom\u00fcnster",
            "lon": "11.240188248960001",
            "lat": "48.392629976291396"
        }
    },
    {
        "model": "authentication.ZipCode",
        "pk": 264,
        "fields": {
            "id": 264,
            "zip_code": "84503",
            "city": "Alt\u00f6tting",
            "lon": "12.6591179719964",
            "lat": "48.231004622093494"
        }
    },
    {
        "model": "authentication.ZipCode",
        "pk": 265,
        "fields": {
            "id": 265,
            "zip_code": "54518",
            "city": "Altrich",
            "lon": "6.831769491273481",
            "lat": "49.937591190365296"
        }
    },
    {
        "model": "authentication.ZipCode",
        "pk": 266,
        "fields": {
            "id": 266,
            "zip_code": "67122",
            "city": "Altrip",
            "lon": "8.48435314518242",
            "lat": "49.4283364735941"
        }
    },
    {
        "model": "authentication.ZipCode",
        "pk": 267,
        "fields": {
            "id": 267,
            "zip_code": "54636",
            "city": "Altscheid",
            "lon": "6.4903901696016595",
            "lat": "49.978426072144096"
        }
    },
    {
        "model": "authentication.ZipCode",
        "pk": 268,
        "fields": {
            "id": 268,
            "zip_code": "17214",
            "city": "Alt Schwerin",
            "lon": "12.3767288288413",
            "lat": "53.53520499097671"
        }
    },
    {
        "model": "authentication.ZipCode",
        "pk": 269,
        "fields": {
            "id": 269,
            "zip_code": "88361",
            "city": "Altshausen",
            "lon": "9.529023500307149",
            "lat": "47.9346891786301"
        }
    },
    {
        "model": "authentication.ZipCode",
        "pk": 270,
        "fields": {
            "id": 270,
            "zip_code": "56858",
            "city": "Altstrimmig",
            "lon": "7.26864442669333",
            "lat": "50.0455307796023"
        }
    },
    {
        "model": "authentication.ZipCode",
        "pk": 271,
        "fields": {
            "id": 271,
            "zip_code": "17166",
            "city": "Alt S\u00fchrkow",
            "lon": "12.5650942339328",
            "lat": "53.748422846783704"
        }
    },
    {
        "model": "authentication.ZipCode",
        "pk": 272,
        "fields": {
            "id": 272,
            "zip_code": "17129",
            "city": "Alt Tellin",
            "lon": "13.2706974052043",
            "lat": "53.887839426511"
        }
    },
    {
        "model": "authentication.ZipCode",
        "pk": 273,
        "fields": {
            "id": 273,
            "zip_code": "15328",
            "city": "Alt Tucheband",
            "lon": "14.5359028368767",
            "lat": "52.5692367852353"
        }
    },
    {
        "model": "authentication.ZipCode",
        "pk": 274,
        "fields": {
            "id": 274,
            "zip_code": "87452",
            "city": "Altusried",
            "lon": "10.177741915198599",
            "lat": "47.7941821100665"
        }
    },
    {
        "model": "authentication.ZipCode",
        "pk": 275,
        "fields": {
            "id": 275,
            "zip_code": "17375",
            "city": "Altwarp",
            "lon": "14.1163823391225",
            "lat": "53.696327709446"
        }
    },
    {
        "model": "authentication.ZipCode",
        "pk": 276,
        "fields": {
            "id": 276,
            "zip_code": "55469",
            "city": "Altweidelbach",
            "lon": "7.53258618794593",
            "lat": "49.997161757125"
        }
    },
    {
        "model": "authentication.ZipCode",
        "pk": 277,
        "fields": {
            "id": 277,
            "zip_code": "17379",
            "city": "Altwigshagen",
            "lon": "13.8488401061973",
            "lat": "53.6656340806527"
        }
    },
    {
        "model": "authentication.ZipCode",
        "pk": 278,
        "fields": {
            "id": 278,
            "zip_code": "19230",
            "city": "Alt Zachun",
            "lon": "11.233589747263501",
            "lat": "53.4140562377596"
        }
    },
    {
        "model": "authentication.ZipCode",
        "pk": 279,
        "fields": {
            "id": 279,
            "zip_code": "15913",
            "city": "Alt Zauche-Wu\u00dfwerk",
            "lon": "14.1226261949613",
            "lat": "51.9635871093603"
        }
    },
    {
        "model": "authentication.ZipCode",
        "pk": 280,
        "fields": {
            "id": 280,
            "zip_code": "25486",
            "city": "Alveslohe",
            "lon": "9.91823665940834",
            "lat": "53.7901836938084"
        }
    },
    {
        "model": "authentication.ZipCode",
        "pk": 281,
        "fields": {
            "id": 281,
            "zip_code": "63755",
            "city": "Alzenau",
            "lon": "9.08032699334732",
            "lat": "50.0856876178646"
        }
    },
    {
        "model": "authentication.ZipCode",
        "pk": 282,
        "fields": {
            "id": 282,
            "zip_code": "55232",
            "city": "Alzey",
            "lon": "8.10708122231097",
            "lat": "49.7500706345578"
        }
    },
    {
        "model": "authentication.ZipCode",
        "pk": 283,
        "fields": {
            "id": 283,
            "zip_code": "92224",
            "city": "Amberg",
            "lon": "11.845408495397",
            "lat": "49.4511663127946"
        }
    },
    {
        "model": "authentication.ZipCode",
        "pk": 284,
        "fields": {
            "id": 284,
            "zip_code": "86854",
            "city": "Amberg",
            "lon": "10.6880224005207",
            "lat": "48.071610933886994"
        }
    },
    {
        "model": "authentication.ZipCode",
        "pk": 285,
        "fields": {
            "id": 285,
            "zip_code": "21385",
            "city": "Amelinghausen",
            "lon": "10.187562906782802",
            "lat": "53.115027501824294"
        }
    },
    {
        "model": "authentication.ZipCode",
        "pk": 286,
        "fields": {
            "id": 286,
            "zip_code": "83123",
            "city": "Amerang",
            "lon": "12.305382045931301",
            "lat": "47.9963858212067"
        }
    },
    {
        "model": "authentication.ZipCode",
        "pk": 287,
        "fields": {
            "id": 287,
            "zip_code": "86735",
            "city": "Amerdingen",
            "lon": "10.4712492531337",
            "lat": "48.7479148291556"
        }
    },
    {
        "model": "authentication.ZipCode",
        "pk": 288,
        "fields": {
            "id": 288,
            "zip_code": "99439",
            "city": "Am Ettersberg",
            "lon": "11.302482192558598",
            "lat": "51.065748931314495"
        }
    },
    {
        "model": "authentication.ZipCode",
        "pk": 289,
        "fields": {
            "id": 289,
            "zip_code": "39393",
            "city": "Am Gro\u00dfen Bruch",
            "lon": "11.0834752303827",
            "lat": "52.095477252005104"
        }
    },
    {
        "model": "authentication.ZipCode",
        "pk": 290,
        "fields": {
            "id": 290,
            "zip_code": "54675",
            "city": "Ammeldingen an der Our",
            "lon": "6.30738830880867",
            "lat": "49.929944083103294"
        }
    },
    {
        "model": "authentication.ZipCode",
        "pk": 291,
        "fields": {
            "id": 291,
            "zip_code": "54673",
            "city": "Ammeldingen bei Neuerburg",
            "lon": "6.25461458751845",
            "lat": "50.013317092798395"
        }
    },
    {
        "model": "authentication.ZipCode",
        "pk": 292,
        "fields": {
            "id": 292,
            "zip_code": "15838",
            "city": "Am Mellensee",
            "lon": "13.445074143471698",
            "lat": "52.140401376976996"
        }
    },
    {
        "model": "authentication.ZipCode",
        "pk": 293,
        "fields": {
            "id": 293,
            "zip_code": "72119",
            "city": "Ammerbuch",
            "lon": "8.95761687144896",
            "lat": "48.559242280176605"
        }
    },
    {
        "model": "authentication.ZipCode",
        "pk": 294,
        "fields": {
            "id": 294,
            "zip_code": "90614",
            "city": "Ammerndorf",
            "lon": "10.8523488567101",
            "lat": "49.42383905448529"
        }
    },
    {
        "model": "authentication.ZipCode",
        "pk": 295,
        "fields": {
            "id": 295,
            "zip_code": "22949",
            "city": "Ammersbek",
            "lon": "10.1925237708671",
            "lat": "53.6963294463435"
        }
    },
    {
        "model": "authentication.ZipCode",
        "pk": 296,
        "fields": {
            "id": 296,
            "zip_code": "92260",
            "city": "Ammerthal",
            "lon": "11.765955941644199",
            "lat": "49.441037778095996"
        }
    },
    {
        "model": "authentication.ZipCode",
        "pk": 297,
        "fields": {
            "id": 297,
            "zip_code": "37345",
            "city": "Am Ohmberg",
            "lon": "10.441958855468402",
            "lat": "51.5259612095796"
        }
    },
    {
        "model": "authentication.ZipCode",
        "pk": 298,
        "fields": {
            "id": 298,
            "zip_code": "35287",
            "city": "Am\u00f6neburg",
            "lon": "8.92261281895821",
            "lat": "50.7739758405248"
        }
    },
    {
        "model": "authentication.ZipCode",
        "pk": 299,
        "fields": {
            "id": 299,
            "zip_code": "63916",
            "city": "Amorbach",
            "lon": "9.193345324447561",
            "lat": "49.6425442068403"
        }
    },
    {
        "model": "authentication.ZipCode",
        "pk": 300,
        "fields": {
            "id": 300,
            "zip_code": "84539",
            "city": "Ampfing",
            "lon": "12.4000066186678",
            "lat": "48.2616290118258"
        }
    },
    {
        "model": "authentication.ZipCode",
        "pk": 301,
        "fields": {
            "id": 301,
            "zip_code": "18233",
            "city": "Am Salzhaff",
            "lon": "11.6705239804314",
            "lat": "54.0118302657471"
        }
    },
    {
        "model": "authentication.ZipCode",
        "pk": 302,
        "fields": {
            "id": 302,
            "zip_code": "73340",
            "city": "Amstetten",
            "lon": "9.896592667221741",
            "lat": "48.588050908369105"
        }
    },
    {
        "model": "authentication.ZipCode",
        "pk": 303,
        "fields": {
            "id": 303,
            "zip_code": "99831",
            "city": "Amt Creuzburg",
            "lon": "10.2180938147731",
            "lat": "51.0666319190707"
        }
    },
    {
        "model": "authentication.ZipCode",
        "pk": 304,
        "fields": {
            "id": 304,
            "zip_code": "19273",
            "city": "Amt Neuhaus",
            "lon": "10.9621016305795",
            "lat": "53.2711215925841"
        }
    },
    {
        "model": "authentication.ZipCode",
        "pk": 305,
        "fields": {
            "id": 305,
            "zip_code": "09439",
            "city": "Amtsberg",
            "lon": "13.0095124582895",
            "lat": "50.7446706510406"
        }
    },
    {
        "model": "authentication.ZipCode",
        "pk": 306,
        "fields": {
            "id": 306,
            "zip_code": "99102",
            "city": "Amt Wachsenburg",
            "lon": "11.0987399618271",
            "lat": "50.92045902147721"
        }
    },
    {
        "model": "authentication.ZipCode",
        "pk": 307,
        "fields": {
            "id": 307,
            "zip_code": "99334",
            "city": "Amt Wachsenburg",
            "lon": "11.032983064679899",
            "lat": "50.878926188944796"
        }
    },
    {
        "model": "authentication.ZipCode",
        "pk": 308,
        "fields": {
            "id": 308,
            "zip_code": "88279",
            "city": "Amtzell",
            "lon": "9.759042731673619",
            "lat": "47.7147786628819"
        }
    },
    {
        "model": "authentication.ZipCode",
        "pk": 309,
        "fields": {
            "id": 309,
            "zip_code": "82346",
            "city": "Andechs",
            "lon": "11.208708377519601",
            "lat": "47.9700501371214"
        }
    },
    {
        "model": "authentication.ZipCode",
        "pk": 310,
        "fields": {
            "id": 310,
            "zip_code": "27446",
            "city": "Anderlingen",
            "lon": "9.2319451814816",
            "lat": "53.39990378961021"
        }
    },
    {
        "model": "authentication.ZipCode",
        "pk": 311,
        "fields": {
            "id": 311,
            "zip_code": "56626",
            "city": "Andernach",
            "lon": "7.372722783952709",
            "lat": "50.432353394721794"
        }
    },
    {
        "model": "authentication.ZipCode",
        "pk": 312,
        "fields": {
            "id": 312,
            "zip_code": "06647",
            "city": "An der Poststra\u00dfe",
            "lon": "11.544775117779801",
            "lat": "51.1956955579926"
        }
    },
    {
        "model": "authentication.ZipCode",
        "pk": 313,
        "fields": {
            "id": 313,
            "zip_code": "06577",
            "city": "An der Schm\u00fccke",
            "lon": "11.240865270664198",
            "lat": "51.2811828757022"
        }
    },
    {
        "model": "authentication.ZipCode",
        "pk": 314,
        "fields": {
            "id": 314,
            "zip_code": "49832",
            "city": "Andervenne",
            "lon": "7.517958105136219",
            "lat": "52.47675106089379"
        }
    },
    {
        "model": "authentication.ZipCode",
        "pk": 315,
        "fields": {
            "id": 315,
            "zip_code": "99189",
            "city": "Andisleben",
            "lon": "10.9405568931071",
            "lat": "51.0813154798276"
        }
    },
    {
        "model": "authentication.ZipCode",
        "pk": 316,
        "fields": {
            "id": 316,
            "zip_code": "74918",
            "city": "Angelbachtal",
            "lon": "8.769344107677519",
            "lat": "49.226250349032895"
        }
    },
    {
        "model": "authentication.ZipCode",
        "pk": 317,
        "fields": {
            "id": 317,
            "zip_code": "35719",
            "city": "Angelburg",
            "lon": "8.43224611742013",
            "lat": "50.8127998393285"
        }
    },
    {
        "model": "authentication.ZipCode",
        "pk": 318,
        "fields": {
            "id": 318,
            "zip_code": "83454",
            "city": "Anger",
            "lon": "12.8425636176701",
            "lat": "47.8029815756454"
        }
    },
    {
        "model": "authentication.ZipCode",
        "pk": 319,
        "fields": {
            "id": 319,
            "zip_code": "16278",
            "city": "Angerm\u00fcnde",
            "lon": "14.0103636341661",
            "lat": "53.0547147791411"
        }
    },
    {
        "model": "authentication.ZipCode",
        "pk": 320,
        "fields": {
            "id": 320,
            "zip_code": "39326",
            "city": "Angern",
            "lon": "11.6241155060591",
            "lat": "52.2843496529408"
        }
    },
    {
        "model": "authentication.ZipCode",
        "pk": 321,
        "fields": {
            "id": 321,
            "zip_code": "39517",
            "city": "Angern",
            "lon": "11.7874178062607",
            "lat": "52.430340270277206"
        }
    },
    {
        "model": "authentication.ZipCode",
        "pk": 322,
        "fields": {
            "id": 322,
            "zip_code": "56584",
            "city": "Anhausen",
            "lon": "7.558822096633639",
            "lat": "50.506996959174"
        }
    },
    {
        "model": "authentication.ZipCode",
        "pk": 323,
        "fields": {
            "id": 323,
            "zip_code": "17219",
            "city": "Ankershagen",
            "lon": "12.9411737522012",
            "lat": "53.5266953286413"
        }
    },
    {
        "model": "authentication.ZipCode",
        "pk": 324,
        "fields": {
            "id": 324,
            "zip_code": "17389",
            "city": "Anklam",
            "lon": "13.7095813373948",
            "lat": "53.851773974050204"
        }
    },
    {
        "model": "authentication.ZipCode",
        "pk": 325,
        "fields": {
            "id": 325,
            "zip_code": "49577",
            "city": "Ankum",
            "lon": "7.84889417203317",
            "lat": "52.5542197715168"
        }
    },
    {
        "model": "authentication.ZipCode",
        "pk": 326,
        "fields": {
            "id": 326,
            "zip_code": "09456",
            "city": "Annaberg-Buchholz",
            "lon": "13.0390824395746",
            "lat": "50.5776455647398"
        }
    },
    {
        "model": "authentication.ZipCode",
        "pk": 327,
        "fields": {
            "id": 327,
            "zip_code": "06925",
            "city": "Annaburg",
            "lon": "13.068719215306698",
            "lat": "51.7137341256633"
        }
    },
    {
        "model": "authentication.ZipCode",
        "pk": 328,
        "fields": {
            "id": 328,
            "zip_code": "76855",
            "city": "Annweiler am Trifels",
            "lon": "7.936798658577019",
            "lat": "49.2301924398304"
        }
    },
    {
        "model": "authentication.ZipCode",
        "pk": 329,
        "fields": {
            "id": 329,
            "zip_code": "59609",
            "city": "Anr\u00f6chte",
            "lon": "8.304121148567999",
            "lat": "51.55203537792811"
        }
    },
    {
        "model": "authentication.ZipCode",
        "pk": 330,
        "fields": {
            "id": 330,
            "zip_code": "99976",
            "city": "Anrode",
            "lon": "10.348467005523",
            "lat": "51.256034099013604"
        }
    },
    {
        "model": "authentication.ZipCode",
        "pk": 331,
        "fields": {
            "id": 331,
            "zip_code": "91522",
            "city": "Ansbach",
            "lon": "10.5636341019809",
            "lat": "49.2929975494155"
        }
    },
    {
        "model": "authentication.ZipCode",
        "pk": 332,
        "fields": {
            "id": 332,
            "zip_code": "56729",
            "city": "Anschau",
            "lon": "7.09846198236998",
            "lat": "50.32664224718929"
        }
    },
    {
        "model": "authentication.ZipCode",
        "pk": 333,
        "fields": {
            "id": 333,
            "zip_code": "82387",
            "city": "Antdorf",
            "lon": "11.2988644319537",
            "lat": "47.75894862315061"
        }
    },
    {
        "model": "authentication.ZipCode",
        "pk": 334,
        "fields": {
            "id": 334,
            "zip_code": "36326",
            "city": "Antrifttal",
            "lon": "9.188816642714539",
            "lat": "50.7956378605354"
        }
    },
    {
        "model": "authentication.ZipCode",
        "pk": 335,
        "fields": {
            "id": 335,
            "zip_code": "53533",
            "city": "Antweiler",
            "lon": "6.811078498439291",
            "lat": "50.4077983868987"
        }
    },
    {
        "model": "authentication.ZipCode",
        "pk": 336,
        "fields": {
            "id": 336,
            "zip_code": "85646",
            "city": "Anzing",
            "lon": "11.8414779576248",
            "lat": "48.149847485001104"
        }
    },
    {
        "model": "authentication.ZipCode",
        "pk": 337,
        "fields": {
            "id": 337,
            "zip_code": "31552",
            "city": "Apelern",
            "lon": "9.32958668293994",
            "lat": "52.3039720155995"
        }
    },
    {
        "model": "authentication.ZipCode",
        "pk": 338,
        "fields": {
            "id": 338,
            "zip_code": "26689",
            "city": "Apen",
            "lon": "7.787825050745",
            "lat": "53.211227431104795"
        }
    },
    {
        "model": "authentication.ZipCode",
        "pk": 339,
        "fields": {
            "id": 339,
            "zip_code": "38486",
            "city": "Apenburg-Winterfeld",
            "lon": "11.106674528863802",
            "lat": "52.6085358186997"
        }
    },
    {
        "model": "authentication.ZipCode",
        "pk": 340,
        "fields": {
            "id": 340,
            "zip_code": "21641",
            "city": "Apensen",
            "lon": "9.598604719296722",
            "lat": "53.4430574925632"
        }
    },
    {
        "model": "authentication.ZipCode",
        "pk": 341,
        "fields": {
            "id": 341,
            "zip_code": "86974",
            "city": "Apfeldorf",
            "lon": "10.947982619990402",
            "lat": "47.889911371763"
        }
    },
    {
        "model": "authentication.ZipCode",
        "pk": 342,
        "fields": {
            "id": 342,
            "zip_code": "87742",
            "city": "Apfeltrach",
            "lon": "10.4984558234828",
            "lat": "47.9969663640891"
        }
    },
    {
        "model": "authentication.ZipCode",
        "pk": 343,
        "fields": {
            "id": 343,
            "zip_code": "99510",
            "city": "Apolda",
            "lon": "11.5060437200008",
            "lat": "51.037799328347305"
        }
    },
    {
        "model": "authentication.ZipCode",
        "pk": 344,
        "fields": {
            "id": 344,
            "zip_code": "21279",
            "city": "Appel",
            "lon": "9.74173190601125",
            "lat": "53.365938074896896"
        }
    },
    {
        "model": "authentication.ZipCode",
        "pk": 345,
        "fields": {
            "id": 345,
            "zip_code": "25482",
            "city": "Appen",
            "lon": "9.736364361109072",
            "lat": "53.6554681792921"
        }
    },
    {
        "model": "authentication.ZipCode",
        "pk": 346,
        "fields": {
            "id": 346,
            "zip_code": "55437",
            "city": "Appenheim",
            "lon": "8.02008180114054",
            "lat": "49.9190796221002"
        }
    },
    {
        "model": "authentication.ZipCode",
        "pk": 347,
        "fields": {
            "id": 347,
            "zip_code": "77767",
            "city": "Appenweier",
            "lon": "7.980059982882509",
            "lat": "48.5544043288202"
        }
    },
    {
        "model": "authentication.ZipCode",
        "pk": 348,
        "fields": {
            "id": 348,
            "zip_code": "56769",
            "city": "Arbach",
            "lon": "6.995737959813809",
            "lat": "50.281546430656604"
        }
    },
    {
        "model": "authentication.ZipCode",
        "pk": 349,
        "fields": {
            "id": 349,
            "zip_code": "91722",
            "city": "Arberg",
            "lon": "10.6322696554679",
            "lat": "49.134071424289296"
        }
    },
    {
        "model": "authentication.ZipCode",
        "pk": 350,
        "fields": {
            "id": 350,
            "zip_code": "53533",
            "city": "Aremberg",
            "lon": "6.811078498439291",
            "lat": "50.4077983868987"
        }
    },
    {
        "model": "authentication.ZipCode",
        "pk": 351,
        "fields": {
            "id": 351,
            "zip_code": "39619",
            "city": "Arendsee (Altmark)",
            "lon": "11.481378169519301",
            "lat": "52.887399095690206"
        }
    },
    {
        "model": "authentication.ZipCode",
        "pk": 352,
        "fields": {
            "id": 352,
            "zip_code": "54518",
            "city": "Arenrath",
            "lon": "6.831769491273481",
            "lat": "49.937591190365296"
        }
    },
    {
        "model": "authentication.ZipCode",
        "pk": 353,
        "fields": {
            "id": 353,
            "zip_code": "37318",
            "city": "Arenshausen",
            "lon": "10.0285677521109",
            "lat": "51.345957100498104"
        }
    },
    {
        "model": "authentication.ZipCode",
        "pk": 354,
        "fields": {
            "id": 354,
            "zip_code": "86561",
            "city": "Aresing",
            "lon": "11.2946822227088",
            "lat": "48.525221089746296"
        }
    },
    {
        "model": "authentication.ZipCode",
        "pk": 355,
        "fields": {
            "id": 355,
            "zip_code": "56729",
            "city": "Arft",
            "lon": "7.09846198236998",
            "lat": "50.32664224718929"
        }
    },
    {
        "model": "authentication.ZipCode",
        "pk": 356,
        "fields": {
            "id": 356,
            "zip_code": "88260",
            "city": "Argenb\u00fchl",
            "lon": "9.93951179553257",
            "lat": "47.7035246859251"
        }
    },
    {
        "model": "authentication.ZipCode",
        "pk": 357,
        "fields": {
            "id": 357,
            "zip_code": "55595",
            "city": "Argenschwang",
            "lon": "7.717568157297139",
            "lat": "49.8721627877536"
        }
    },
    {
        "model": "authentication.ZipCode",
        "pk": 358,
        "fields": {
            "id": 358,
            "zip_code": "55496",
            "city": "Argenthal",
            "lon": "7.617207465479",
            "lat": "49.9562773590794"
        }
    },
    {
        "model": "authentication.ZipCode",
        "pk": 359,
        "fields": {
            "id": 359,
            "zip_code": "37627",
            "city": "Arholzen",
            "lon": "9.62696227489943",
            "lat": "51.865651601014"
        }
    },
    {
        "model": "authentication.ZipCode",
        "pk": 360,
        "fields": {
            "id": 360,
            "zip_code": "25767",
            "city": "Arkebek",
            "lon": "9.30891379197311",
            "lat": "54.15633579594461"
        }
    },
    {
        "model": "authentication.ZipCode",
        "pk": 361,
        "fields": {
            "id": 361,
            "zip_code": "25860",
            "city": "Arlewatt",
            "lon": "9.08783281915001",
            "lat": "54.5306114303148"
        }
    },
    {
        "model": "authentication.ZipCode",
        "pk": 362,
        "fields": {
            "id": 362,
            "zip_code": "55288",
            "city": "Armsheim",
            "lon": "8.134455832537991",
            "lat": "49.8404887256952"
        }
    },
    {
        "model": "authentication.ZipCode",
        "pk": 363,
        "fields": {
            "id": 363,
            "zip_code": "24616",
            "city": "Armstedt",
            "lon": "9.82840493644667",
            "lat": "54.000674786237795"
        }
    },
    {
        "model": "authentication.ZipCode",
        "pk": 364,
        "fields": {
            "id": 364,
            "zip_code": "21769",
            "city": "Armstorf",
            "lon": "9.075772314679881",
            "lat": "53.6137315904684"
        }
    },
    {
        "model": "authentication.ZipCode",
        "pk": 365,
        "fields": {
            "id": 365,
            "zip_code": "93471",
            "city": "Arnbruck",
            "lon": "12.988312475512199",
            "lat": "49.1365789133426"
        }
    },
    {
        "model": "authentication.ZipCode",
        "pk": 366,
        "fields": {
            "id": 366,
            "zip_code": "39596",
            "city": "Arneburg",
            "lon": "11.947302353606998",
            "lat": "52.7057864965575"
        }
    },
    {
        "model": "authentication.ZipCode",
        "pk": 367,
        "fields": {
            "id": 367,
            "zip_code": "24399",
            "city": "Arnis",
            "lon": "9.923247602864938",
            "lat": "54.633663363821604"
        }
    },